{
    "temples": [
        {   "name": "Washington DC, USA",
            "address": "9900 Stoneybrook Dr., Kensington, MD 20895, USA",
            "telephone": "301-588-0650",
            "hours": "Currently Closed",
            "ordinances": "Currently Closed",
            "services": "Clothing Rental",
            "picture": "../images/washington_dc_mormon_temple.webp"
        },

        {   "name": "Cardston, Alberta, Canada",
            "address": "348 3rd St W, Cardston, AB T0K 0K0, Canada",
            "telephone": "403-653-3552",
            "hours": "Ordinances By Appointment Only",
            "ordinances": "Live or Proxy: Baptism, Confirmation, Priesthood Ordination, Initiatory, Endowment, and Sealing.",
            "services":"Clothing Rental",
            "picture": "../images/cardston_alberta_temple_lds.webp"
        },
        
        {   "name": "Fresno, California, USA",
            "address": "6290 N Valentine Ave, Fresno, CA 93711, USA",
            "telephone": "559-437-9451",
            "hours": "Ordinances By Appointment Only",
            "ordinances": "Live or Proxy: Baptism, Confirmation, Priesthood Ordination, Initiatory, Endowment, and Sealing.",
            "services":"Clothing Rental",
            "picture": "../images/fresno_temple_lds.webp"
        },
        
        {   "name": "Hartford, Connecticut, USA",
            "address": "2 Central Way, Farmington, CT 06032, USA",
            "telephone": "860-773-7200",
            "hours": "Ordinances By Appointment Only",
            "ordinances": "Live or Proxy: Baptism, Confirmation, Priesthood Ordination, Initiatory, Endowment, and Sealing.",
            "services":"None",
            "picture": "../images/hartford_connecticut_temple_.webp"
        },
        
        {   "name": "Raleigh, North Carolina, USA",
            "address": "574 Bryan Drive, Apex, NC 27502, USA",
            "telephone": "919-362-4135",
            "hours": "Ordinances By Appointment Only",
            "ordinances": "Live or Proxy: Baptism, Confirmation, Priesthood Ordination, Initiatory, Endowment, and Sealing.",
            "services":"None",
            "picture": "../images/raleigh_north_carolina_temple.webp"
        },
        
        {   "name": "Veracruz, Mexico",
            "address": "Ave. Ejercito Mexicano, Esq. Michoacan, Colonia Luis Echeverria, 94295 Boca del Rio, Veracruz, Mexico",
            "telephone": "(52) 229-922-9621",
            "hours": "Ordinances By Appointment Only",
            "ordinances": "Live or Proxy: Baptism, Confirmation, Priesthood Ordination, Initiatory, Endowment, and Sealing.",
            "services":"None",
            "picture": "../images/veracruz_mexico_temple_lds.webp"
        },

        {   "name": "Winter Quarters, Nebraska, USA",
            "address": "8283 N 34th St",
            "telephone": "402-453-3406",
            "hours": "Ordinances By Appointment Only",
            "ordinances": "Live or Proxy: Baptism, Confirmation, Priesthood Ordination, Initiatory, Endowment, and Sealing.",
            "services":"None",
            "picture": "../images/winter_quarters_temple_lds.webp"
        }
    ]
    
}